[
{ "name": "Amman", "province": "Jordan", "coordinates": [35.9333, 31.9500] },
{ "name": "Zarqa", "province": "Jordan", "coordinates": [37.040034, 31.693654] },
{ "name": "Al-Ahsa", "province": "KSA", "coordinates": [49.6219, 25.4294] },
{ "name": "Al-Hofuf", "province": "KSA", "coordinates": [49.5833, 25.3833] },
{ "name": "Al-Kharj", "province": "KSA", "coordinates": [47.3000, 24.1500] },
{ "name": "Al Makhwah", "province": "KSA", "coordinates": [41.436, 19.779] },
{ "name": "Dammam", "province": "KSA", "coordinates": [50.2000, 26.2833] },
{ "name": "Khobar", "province": "KSA", "coordinates": [50.2000, 26.2833] },
{ "name": "Dhahran", "province": "KSA", "coordinates": [50.1500, 26.2667] },
{ "name": "Al-Qassim Province", "province": "KSA", "coordinates": [43.0000, 26.0000] },
{ "name": "Buraydah", "province": "KSA", "coordinates": [43.9667, 26.3333] },
{ "name": "Unaizah", "province": "KSA", "coordinates": [43.9940, 26.0840] },
{ "name": "Ar Rass", "province": "KSA", "coordinates": [43.5000, 25.8667] },
{ "name": "Al Badaya", "province": "KSA", "coordinates": [43.7000, 26.000] },
{ "name": "Jubail", "province": "KSA", "coordinates": [49.6667, 27.0000] },
{ "name": "Asir Province", "province": "KSA", "coordinates": [43.0000, 19.0000] },
{ "name": "Khamis Mushait", "province": "KSA", "coordinates": [42.7333, 18.3000] },
{ "name": "Hafr Al-Batin", "province": "KSA", "coordinates": [45.9636, 28.4342] },
{ "name": "Hotat Bani Tamim", "province": "KSA", "coordinates": [46.8845, 23.4868] },
{ "name": "Haradh", "province": "KSA", "coordinates": [49.0653, 24.1456] },
{ "name": "Afif", "province": "KSA", "coordinates": [42.9203, 23.9100] },
{ "name": "Wadi al-Dawasir", "province": "KSA", "coordinates": [45.1994, 20.5042] },
{ "name": "Arar", "province": "KSA", "coordinates": [41.0167, 30.9833] },
{ "name": "Taif", "province": "KSA", "coordinates": [40.4167, 21.2667] },
{ "name": "Bisha", "province": "KSA", "coordinates": [42.6208, 19.9844] },
{ "name": "Makkah", "province": "KSA", "coordinates": [39.816667, 21.416667] },
{ "name": "Madinah", "province": "KSA", "coordinates": [39.6000, 24.4667] },
{ "name": "Riyadh", "province": "KSA", "coordinates": [46.724167, 24.711667] },
{ "name": "Eastern Province", "province": "KSA", "coordinates": [50.2000, 26.2833] },
{ "name": "Qatif", "province": "KSA", "coordinates": [49.9960, 26.5560] },
{ "name": "Al Jawf Province", "province": "KSA", "coordinates": [40.2, 29.969722] }, 
{ "name": "Al Hawiyah", "province": "KSA", "coordinates": [40.4975, 21.4411] }, 
{ "name": "Jeddah", "province": "KSA", "coordinates": [39.172989, 21.543489] },
{ "name": "Najran", "province": "KSA", "coordinates": [44.1322, 17.4917] },
{ "name": "Sakaka", "province": "KSA", "coordinates": [40.2000, 29.9697] },
{ "name": "Rafha", "province": "KSA", "coordinates": [43.5014, 29.6386] },
{ "name": "Qurayyat", "province": "KSA", "coordinates": [37.3667, 31.3167] },
{ "name": "Tabuk", "province": "KSA", "coordinates": [36.5833, 28.3833] },
{ "name": "Al Qunfudhah", "province": "KSA", "coordinates": [41.0789, 19.1264] },
{ "name": "Doha", "province": "Qatar", "coordinates": [51.522476, 25.280282] },
{ "name": "Al-Shahaniya", "province": "Qatar", "coordinates": [51.2263900, 25.3686100] },
{ "name": "Dubai", "province": "UAE", "coordinates": [55.3095, 25.2697] },
{ "name": "Sharjah", "province": "UAE", "coordinates": [55.3833, 25.4333] },
{ "name": "Abu Dhabi", "province": "UAE", "coordinates": [54.38, 24.47] },
{ "name": "Al Ain", "province": "UAE", "coordinates": [55.7447, 24.2075] },
{ "name": "Monastir", "province": "Tunisia", "coordinates": [10.8275, 35.7717] },
{ "name": "Birmingham", "province": "UK", "coordinates": [-1.91, 52.48] },
{ "name": "Valenciennes", "province": "France", "coordinates": [3.5233, 50.3581] },
{ "name": "Florence", "province": "Italy", "coordinates": [11.2536, 43.7717] },
{ "name": "Muscat", "province": "Oman", "coordinates": [58.5400, 23.6100] },
{ "name": "Nizwa", "province": "Oman", "coordinates": [57.5333, 22.9333] },
{ "name": "Adam", "province": "Oman", "coordinates": [57.5333, 22.3833] },
{ "name": "Al-Batinah North", "province": "Oman", "coordinates": [56.7299, 24.3420] },
{ "name": "Sohar", "province": "Oman", "coordinates": [56.7299, 24.3420] },
{ "name": "Sana'a", "province": "Yemen", "coordinates": [44.2064, 15.3483] },
{ "name": "Shibam", "province": "Yemen", "coordinates": [48.6267, 15.9269] },
{ "name": "Kerman", "province": "Iran", "coordinates": [57.0679, 30.2907] },
{ "name": "Kuwait City", "province": "Kuwait", "coordinates": [47.9783, 29.3697] }
]
